,City,Country,Lat,Lng,Max Temp,Humidity,Cloudiness,Wind Speed,Description
0,Ferrol,ES,43.4832,-8.2369,53.67,86,76,5.84,broken clouds
1,Busselton,AU,-33.65,115.3333,71.91,33,16,10.6,few clouds
2,Rikitea,PF,-23.1203,-134.9692,75.85,80,67,12.19,light rain
3,Barrow,US,71.2906,-156.7887,-7.58,84,1,9.22,clear sky
4,Sitka,US,57.0531,-135.33,35.49,64,90,17.27,light rain
5,Varadero,CU,23.1536,-81.2514,74.16,82,5,11.12,clear sky
6,Mataura,NZ,-46.1927,168.8643,55.47,45,0,4.14,clear sky
7,The Valley,AI,18.217,-63.0578,80.1,74,3,23.6,clear sky
8,Banda Aceh,ID,5.5577,95.3222,86.7,60,22,11.95,few clouds
9,Grand Gaube,MU,-20.0064,57.6608,83.37,60,47,11.99,scattered clouds
10,Marzuq,YE,14.4,46.4667,61.95,36,0,5.93,clear sky
11,Port Moresby,PG,-9.4431,147.1797,83.68,75,100,12.8,overcast clouds
12,Alibag,IN,18.6411,72.8792,86.07,50,30,7.56,scattered clouds
13,Punta Arenas,CL,-53.15,-70.9167,48.31,87,0,9.22,clear sky
14,Hermanus,ZA,-34.4187,19.2345,63.9,69,100,1.01,overcast clouds
15,Tuktoyaktuk,CA,69.4541,-133.0374,-5.96,92,100,11.03,overcast clouds
16,Severo-Kurilsk,RU,50.6789,156.125,32.86,97,100,21.54,snow
17,New Norfolk,AU,-42.7826,147.0587,66.88,40,2,1.99,clear sky
18,Nikolskoye,RU,59.7035,30.7861,24.69,93,100,7.05,overcast clouds
19,Hambantota,LK,6.1241,81.1185,82.74,89,40,6.91,scattered clouds
20,Berlevag,NO,70.8578,29.0864,28.04,82,100,12.12,overcast clouds
21,Salta,AR,-24.7859,-65.4117,66.49,84,12,1.99,few clouds
22,Mayo,US,38.8876,-76.5119,48.42,57,20,17.0,few clouds
23,Padre Bernardo,BR,-15.35,-48.5,68.25,97,60,1.61,broken clouds
24,Victoria,HK,22.2855,114.1577,75.38,69,0,8.01,clear sky
25,Hilo,US,19.7297,-155.09,73.27,46,40,3.44,light rain
26,Leningradskiy,RU,69.3833,178.4167,-32.06,94,32,5.3,scattered clouds
27,Hami,CN,42.8,93.45,30.34,27,0,5.06,clear sky
28,Airai,TL,-8.9266,125.4092,68.83,84,74,0.72,broken clouds
29,Reyes,BO,-14.3167,-67.3833,73.49,96,100,2.13,overcast clouds
30,Lavaltrie,CA,45.8834,-73.2824,41.07,73,98,28.39,overcast clouds
31,Ushuaia,AR,-54.8,-68.3,47.86,87,75,6.91,broken clouds
32,Torbay,CA,47.6666,-52.7314,38.75,96,100,1.01,light rain
33,Sambava,MG,-14.2667,50.1667,81.0,65,99,10.22,overcast clouds
34,Kudahuvadhoo,MV,2.6708,72.8944,80.47,77,99,17.07,overcast clouds
35,Bluff,NZ,-46.6,168.3333,55.8,66,1,18.3,clear sky
36,Vila Franca Do Campo,PT,37.7167,-25.4333,66.2,89,100,17.65,overcast clouds
37,Taunggyi,MM,20.7833,97.0333,73.67,45,16,4.61,few clouds
38,Kapaa,US,22.0752,-159.319,76.12,78,40,1.01,light rain
39,Jamestown,US,42.097,-79.2353,36.99,81,90,10.0,light snow
40,San Quintin,MX,30.4833,-115.95,56.44,62,0,7.29,clear sky
41,Yaan,NG,7.3833,8.5667,72.77,26,93,4.16,overcast clouds
42,Ponta Do Sol,PT,32.6667,-17.1,64.0,76,61,3.44,broken clouds
43,Tawang,IN,27.5833,91.8667,50.49,38,2,6.58,clear sky
44,Saint-Philippe,RE,-21.3585,55.7679,83.79,75,83,13.49,light rain
45,Narsaq,GL,60.9167,-46.05,21.42,84,69,4.76,broken clouds
46,Carutapera,BR,-1.195,-46.02,78.55,79,22,8.43,few clouds
47,Albany,US,42.6001,-73.9662,44.46,59,100,8.99,overcast clouds
48,Geraldton,AU,-28.7667,114.6,79.21,38,9,21.85,clear sky
49,Kars,TR,40.602,43.095,13.05,92,0,2.3,clear sky
50,Abha,SA,18.2164,42.5053,50.25,46,0,0.0,clear sky
51,Soloneshnoye,RU,51.6544,84.3197,26.89,79,100,1.88,overcast clouds
52,Iwanai,JP,42.9744,140.5089,40.26,95,82,4.56,broken clouds
53,Fairbanks,US,64.8378,-147.7164,-6.9,77,90,4.61,light snow
54,Santa Cruz,BO,-17.8,-63.1667,74.66,94,75,8.05,broken clouds
55,Oistins,BB,13.0667,-59.5333,79.2,79,100,18.19,overcast clouds
56,Pisco,PE,-13.7,-76.2167,64.45,88,0,8.05,clear sky
57,Pevek,RU,69.7008,170.3133,-35.75,97,51,5.68,broken clouds
58,Hasaki,JP,35.7333,140.8333,63.28,57,48,23.06,scattered clouds
59,Senanga,ZM,-16.1167,23.2667,76.64,60,100,6.44,overcast clouds
60,Outjo,NA,-20.1167,16.15,73.83,58,97,10.65,overcast clouds
61,Lagoa,PT,39.05,-27.9833,60.6,70,100,20.92,overcast clouds
62,Aksarka,RU,66.5606,67.7975,-11.52,100,82,3.36,broken clouds
63,Atuona,PF,-9.8,-139.0333,78.89,77,89,17.96,overcast clouds
64,Hobart,AU,-42.8794,147.3294,67.23,54,20,3.0,few clouds
65,Tsiroanomandidy,MG,-18.7667,46.0333,81.84,41,74,4.56,broken clouds
66,Norman Wells,CA,65.282,-126.8329,-1.53,94,100,11.45,overcast clouds
67,Vaini,TO,-21.2,-175.2,80.76,89,40,6.91,light rain
68,Jinka,ET,5.65,36.65,72.84,25,66,4.76,broken clouds
69,Bichura,RU,50.5881,107.6022,17.2,67,45,4.16,scattered clouds
70,Ruidoso,US,33.3317,-105.673,40.1,25,1,5.75,clear sky
71,Saldanha,ZA,-33.0117,17.9442,62.96,78,100,1.97,overcast clouds
72,Sao Joao Da Barra,BR,-21.6403,-41.0511,73.65,92,83,10.85,broken clouds
73,Hithadhoo,MV,-0.6,73.0833,80.83,77,83,11.59,broken clouds
74,Shelburne,CA,44.0787,-80.2041,31.57,90,71,18.41,broken clouds
75,Kodiak,US,57.79,-152.4072,9.91,56,20,43.73,few clouds
76,Opuwo,NA,-18.0607,13.84,73.94,55,44,3.69,scattered clouds
77,Thompson,CA,55.7435,-97.8558,-5.64,84,90,3.44,overcast clouds
78,Tura,IN,25.5198,90.2201,74.43,31,0,1.54,clear sky
79,Gat,IL,31.61,34.7642,67.41,40,82,1.1,broken clouds
80,Camana,PE,-16.6228,-72.7111,67.44,89,99,8.97,overcast clouds
81,Lumeje,AO,-11.55,20.7833,67.93,88,100,0.63,overcast clouds
82,Ulaanbaatar,MN,47.9077,106.8832,6.93,56,17,2.24,few clouds
83,Bucerias,MX,20.75,-105.3333,68.41,76,99,4.14,overcast clouds
84,Avarua,CK,-21.2078,-159.775,77.05,83,100,8.05,overcast clouds
85,Mount Gambier,AU,-37.8333,140.7667,78.71,33,0,9.46,clear sky
86,Clyde River,CA,70.4692,-68.5914,-17.18,96,25,3.89,scattered clouds
87,Muli,MV,2.9167,73.5667,80.31,81,100,18.72,overcast clouds
88,Tshikapa,CD,-6.4167,20.8,73.24,94,100,1.07,overcast clouds
89,Liverpool,GB,53.4106,-2.9779,54.52,90,90,0.0,drizzle
90,Tasiilaq,GL,65.6145,-37.6368,39.36,63,100,27.83,overcast clouds
91,Kavieng,PG,-2.5744,150.7967,83.88,77,100,7.52,light rain
92,Ashta,IN,23.0167,76.7167,73.53,39,0,5.77,clear sky
93,San Sebastian Huehuetenango,GT,15.3833,-91.5833,54.25,80,0,0.43,clear sky
94,Qaanaaq,GL,77.484,-69.3632,-1.37,64,0,6.58,clear sky
95,Burns Lake,CA,54.2331,-125.7533,23.11,86,100,2.46,overcast clouds
96,Bengkulu,ID,-3.8004,102.2655,83.93,68,98,3.74,overcast clouds
97,Saint-Pierre,RE,-21.3393,55.4781,83.88,64,0,5.75,clear sky
98,Bethel,US,41.3712,-73.414,55.76,40,90,19.57,overcast clouds
99,Esperance,AU,-33.8667,121.9,66.04,61,98,18.95,overcast clouds
100,Coahuayana,MX,18.7333,-103.6833,72.37,92,62,3.96,broken clouds
101,Puerto Ayora,EC,-0.7393,-90.3518,68.56,97,100,1.01,overcast clouds
102,Huilong,CN,31.8111,121.655,51.93,63,100,17.36,overcast clouds
103,Lorengau,PG,-2.0226,147.2712,85.59,76,100,11.77,overcast clouds
104,Santa Rosa,PH,14.3122,121.1114,85.1,69,64,16.04,broken clouds
105,Kushmurun,KZ,52.4503,64.6311,7.92,91,20,10.58,few clouds
106,Cape Town,ZA,-33.9258,18.4232,66.09,82,100,4.34,overcast clouds
107,Igarka,RU,67.4667,86.5833,-25.02,91,67,6.38,broken clouds
108,Ribeira Grande,PT,38.5167,-28.7,61.59,70,100,17.98,overcast clouds
109,San Cristobal,VE,7.7669,-72.225,63.09,94,97,2.93,overcast clouds
110,Oga,IT,46.4631,10.347,15.69,96,87,7.67,overcast clouds
111,Longyearbyen,SJ,78.2186,15.6401,33.64,69,75,23.02,light rain
112,Abdulino,RU,53.7,53.6667,11.57,87,6,4.94,clear sky
113,Ancud,CL,-41.8697,-73.8203,48.42,84,87,15.79,light rain
114,Port Alfred,ZA,-33.5906,26.891,69.75,88,100,7.2,light rain
115,Namatanai,PG,-3.6667,152.4333,82.94,78,87,7.83,light rain
116,Harper,LR,4.375,-7.7169,78.13,85,62,2.26,broken clouds
117,Panaba,MX,21.2833,-88.2667,70.25,94,53,6.35,broken clouds
118,Ambon,ID,-3.6954,128.1814,85.95,69,59,10.71,broken clouds
119,Aklavik,CA,68.2191,-135.0107,-0.96,90,100,20.33,overcast clouds
120,Radford,US,37.1318,-80.5764,41.58,78,90,16.11,overcast clouds
121,Bredasdorp,ZA,-34.5322,20.0403,62.28,66,97,5.1,overcast clouds
122,Ugoofaaru,MV,5.6667,73.0,82.06,72,94,6.93,overcast clouds
123,East London,ZA,-33.0153,27.9116,67.14,100,75,5.75,broken clouds
124,Derzhavinsk,KZ,51.1,66.3167,11.8,83,100,15.14,overcast clouds
125,Burgeo,CA,47.6167,-57.6152,43.38,99,100,24.43,overcast clouds
126,Ilulissat,GL,69.2167,-51.1,19.42,63,96,8.05,overcast clouds
127,Margate,GB,51.3813,1.3862,53.96,93,99,1.01,overcast clouds
128,Port Lincoln,AU,-34.7333,135.8667,78.76,42,71,4.79,broken clouds
129,Castro,BR,-24.7911,-50.0119,66.97,58,100,1.54,overcast clouds
130,Umm Lajj,SA,25.0213,37.2685,78.22,27,100,5.48,overcast clouds
131,Bulgan,MN,48.8125,103.5347,18.3,36,17,3.8,few clouds
132,Natal,BR,-5.795,-35.2094,79.45,78,40,6.91,scattered clouds
133,Padang,ID,-0.9492,100.3543,87.85,81,100,3.24,overcast clouds
134,Ahipara,NZ,-35.1667,173.1667,72.75,81,74,5.32,broken clouds
135,Hellvik,NO,59.9156,5.781,41.27,87,100,7.16,overcast clouds
136,Garzon,CO,2.1959,-75.6278,67.95,96,99,0.74,light rain
137,Port Blair,IN,11.6667,92.75,86.04,70,40,11.5,scattered clouds
138,Brumado,BR,-14.2036,-41.6653,68.04,98,21,4.43,few clouds
139,Kruisfontein,ZA,-34.0033,24.7314,68.88,67,95,3.71,overcast clouds
140,Georgetown,MY,5.4112,100.3354,89.53,55,20,6.91,few clouds
141,Mana,GF,5.6592,-53.7767,76.5,92,100,9.6,moderate rain
142,Pueblo,US,38.2545,-104.6091,45.61,28,1,14.97,clear sky
143,Hammerfest,NO,70.6634,23.6821,32.45,74,90,0.0,overcast clouds
144,Hobyo,SO,5.3505,48.5268,81.59,69,28,21.0,scattered clouds
145,Saskylakh,RU,71.9167,114.0833,-44.72,100,73,1.9,broken clouds
146,Viedma,AR,-40.8135,-62.9967,69.33,32,100,7.78,overcast clouds
147,Sault Sainte Marie,CA,46.5168,-84.3333,28.69,69,1,10.36,clear sky
148,Vangaindrano,MG,-23.35,47.6,83.17,59,19,5.61,few clouds
149,Warri,NG,5.5167,5.75,77.54,89,89,2.1,overcast clouds
150,Cabo San Lucas,MX,22.8909,-109.9124,72.52,70,1,4.38,clear sky
151,Kyren,RU,51.6828,102.1408,25.16,75,96,3.51,overcast clouds
152,Koster,ZA,-25.863,26.8976,63.01,69,100,6.87,light rain
153,Los Llanos De Aridane,ES,28.6585,-17.9182,62.35,83,90,5.99,overcast clouds
154,Jinan,CN,36.6683,116.9972,40.59,22,19,9.71,few clouds
155,Sioux Lookout,CA,50.1001,-91.917,15.49,92,38,7.56,scattered clouds
156,Hualmay,PE,-11.0964,-77.6139,66.45,89,36,7.14,scattered clouds
157,Pemberton,CA,50.3164,-122.8027,23.56,94,89,4.25,overcast clouds
158,Yuli,NG,9.6989,10.2744,69.48,26,85,6.51,overcast clouds
159,Mabaruma,GY,8.2,-59.7833,73.09,100,100,1.41,overcast clouds
160,Cherskiy,RU,68.75,161.3,-45.17,98,40,3.29,scattered clouds
161,Pocone,BR,-16.2567,-56.6228,74.35,95,100,3.4,overcast clouds
162,Pudozh,RU,61.8099,36.5345,10.0,89,97,6.46,overcast clouds
163,Amga,RU,60.8953,131.9608,-26.23,100,95,0.94,overcast clouds
164,Fort Madison,US,40.6298,-91.3151,36.01,60,18,8.05,few clouds
165,Coquimbo,CL,-29.9533,-71.3436,56.93,88,0,5.75,clear sky
166,Sao Filipe,CV,14.8961,-24.4956,74.52,67,69,3.85,broken clouds
167,Birao,CF,10.2849,22.7882,73.13,22,69,9.86,broken clouds
168,Luderitz,NA,-26.6481,15.1594,67.12,54,50,10.07,scattered clouds
169,Butaritari,KI,3.0707,172.7902,82.81,71,99,15.84,overcast clouds
170,Chenzhou,CN,25.8,113.0333,50.25,85,100,6.33,overcast clouds
171,Onega,RU,63.9061,38.1404,18.91,86,100,8.46,overcast clouds
172,Chuy,UY,-33.6971,-53.4616,59.83,90,0,5.46,clear sky
173,Ushtobe,KZ,45.2514,77.9838,34.9,56,100,6.53,light rain
174,Xuddur,SO,4.1213,43.8894,79.34,54,38,24.02,scattered clouds
175,Moerai,PF,-22.4333,-151.3333,78.4,74,100,3.33,overcast clouds
176,Lagunas,PE,-5.2269,-75.6753,73.15,98,45,1.63,scattered clouds
177,Port Keats,AU,-14.25,129.55,89.87,58,86,11.86,overcast clouds
178,Tiksi,RU,71.6872,128.8694,-18.53,99,98,3.38,overcast clouds
179,Manta,EC,-0.95,-80.7333,71.38,94,90,0.0,light rain
180,Khatanga,RU,71.9667,102.5,-47.63,100,51,3.18,broken clouds
181,Itoman,JP,26.1247,127.6694,75.58,53,75,11.5,broken clouds
182,Guthrie,US,35.8789,-97.4253,41.61,55,1,8.05,clear sky
183,Puteyets,RU,65.1716,57.091,17.87,87,100,8.43,overcast clouds
184,Jeremie,HT,18.65,-74.1167,76.3,78,0,2.86,clear sky
185,Katsuura,JP,35.1333,140.3,66.18,64,23,25.99,few clouds
186,Nazas,MX,25.2333,-104.1333,57.15,43,56,3.98,broken clouds
187,Mar Del Plata,AR,-38.0023,-57.5575,66.87,90,73,18.99,broken clouds
188,Yellowknife,CA,62.456,-114.3525,10.42,89,90,1.99,light snow
189,Pundaguitan,PH,6.3711,126.1689,83.41,74,88,9.17,overcast clouds
190,Puerto Del Rosario,ES,28.5004,-13.8627,64.15,77,16,12.66,few clouds
191,Kamennomostskiy,RU,44.2983,40.1856,49.75,52,99,4.81,overcast clouds
192,Sayyan,YE,15.1718,44.3244,48.96,43,0,4.81,clear sky
193,Terra Nova,BR,-12.3667,-40.6667,66.87,98,54,5.17,broken clouds
194,Tonj,SS,7.2737,28.6822,82.36,27,51,6.04,broken clouds
195,Provideniya,RU,64.3833,-173.3,-8.88,78,0,7.81,clear sky
196,High Rock,BS,26.6208,-78.2833,68.02,76,10,5.93,clear sky
197,Koslan,RU,63.4564,48.8989,12.34,86,99,7.81,overcast clouds
198,Knysna,ZA,-34.0363,23.0471,70.18,62,37,3.15,scattered clouds
199,Varhaug,NO,58.6147,5.6457,41.49,94,100,21.05,overcast clouds
200,Turayf,SA,31.6725,38.6637,53.56,43,96,11.07,overcast clouds
201,College,US,64.8569,-147.8028,-7.94,76,75,3.44,light snow
202,Egra,CZ,50.0796,12.3739,35.46,99,100,3.89,overcast clouds
203,Rawson,AR,-43.3002,-65.1023,64.04,33,2,20.65,clear sky
204,Manakara,MG,-22.1333,48.0167,84.02,55,43,4.85,scattered clouds
205,Lavrentiya,RU,65.5833,-171.0,-13.32,84,7,8.14,clear sky
206,Carnarvon,AU,-24.8667,113.6333,80.67,44,0,20.71,clear sky
207,Arraial Do Cabo,BR,-22.9661,-42.0278,73.89,94,97,16.51,overcast clouds
208,Kuching,MY,1.55,110.3333,82.62,83,40,10.36,scattered clouds
209,Kataysk,RU,56.289,62.5841,10.76,87,14,5.35,few clouds
210,Sunndalsora,NO,62.6754,8.5515,39.25,80,100,12.24,light rain
211,Mansfield,GB,53.1333,-1.2,54.0,97,100,4.0,overcast clouds
212,Kaka,TM,37.3482,59.6143,52.61,53,0,1.41,clear sky
213,Salalah,OM,17.0151,54.0924,80.69,29,0,18.41,clear sky
214,Tiznit,MA,29.5833,-9.5,56.61,33,0,6.02,clear sky
215,Karratha,AU,-20.7377,116.8463,99.3,27,32,15.93,scattered clouds
216,Tamandare,BR,-8.7597,-35.1047,77.05,80,8,8.59,clear sky
217,Nakatunguru,TZ,-2.1167,33.0667,72.84,61,97,14.63,overcast clouds
218,Abadan,IR,30.3392,48.3043,53.55,30,84,13.65,broken clouds
219,Sorong,ID,-0.8833,131.25,84.58,73,23,9.73,few clouds
220,Havre-Saint-Pierre,CA,50.2334,-63.5986,32.36,93,90,26.46,snow
221,Saint Anthony,US,45.0205,-93.218,25.14,76,1,3.0,clear sky
222,Thinadhoo,MV,0.5333,72.9333,80.37,78,67,8.9,broken clouds
223,Matamoros,MX,25.5333,-103.25,59.11,31,67,10.09,broken clouds
224,Talnakh,RU,69.4865,88.3972,-20.13,80,99,0.78,overcast clouds
225,Utkivka,UA,49.7858,36.0753,30.81,89,66,10.02,broken clouds
226,Eyl,SO,7.9803,49.8164,82.04,61,19,22.21,few clouds
227,Olafsvik,IS,64.8945,-23.7142,41.54,90,100,22.28,overcast clouds
228,Kirundo,BI,-2.5833,30.1667,68.02,88,100,1.32,light rain
229,Nanortalik,GL,60.1432,-45.2371,24.4,78,92,20.8,overcast clouds
230,Vila Velha,BR,-20.3297,-40.2925,75.15,90,20,5.01,few clouds
231,Sept-Iles,CA,50.2001,-66.3821,30.72,96,90,10.0,light shower snow
232,Lev Tolstoy,RU,53.2134,39.446,20.55,83,73,10.29,broken clouds
233,Kirakira,SB,-10.4544,161.9205,80.33,90,100,13.0,light rain
234,Ilebo,CD,-4.3167,20.5833,71.69,100,100,2.15,moderate rain
235,Buraydah,SA,26.326,43.975,58.28,36,79,4.41,broken clouds
236,Olinda,BR,-8.0089,-34.8553,80.33,74,40,8.05,scattered clouds
237,Touros,BR,-5.1989,-35.4608,79.7,69,45,13.0,scattered clouds
238,Kahului,US,20.8947,-156.47,74.46,86,1,14.97,clear sky
239,Khash,IR,28.2211,61.2158,56.53,17,4,4.18,clear sky
240,Port Elizabeth,ZA,-33.918,25.5701,71.1,75,98,3.24,overcast clouds
241,Katobu,ID,-4.9408,122.5276,86.27,66,95,8.5,overcast clouds
242,La Ronge,CA,55.1001,-105.2842,8.06,97,100,5.06,overcast clouds
243,Dudinka,RU,69.4058,86.1778,-24.16,89,100,4.54,overcast clouds
244,Munak,IN,29.5187,76.8486,67.89,25,100,3.04,overcast clouds
245,Lompoc,US,34.6391,-120.4579,53.13,84,1,3.44,clear sky
246,Rivadavia,AR,-33.1905,-68.4608,62.71,78,40,27.63,scattered clouds
247,Lazaro Cardenas,MX,17.9583,-102.2,74.91,84,43,4.59,scattered clouds
248,Bambanglipuro,ID,-7.95,110.2833,85.82,64,81,9.1,broken clouds
249,Prata,BR,-19.3072,-48.9242,74.48,71,95,2.86,overcast clouds
250,Neunkirchen,DE,49.35,7.1833,38.35,80,0,1.01,clear sky
251,Bodinayakkanur,IN,10.0167,77.35,82.31,66,23,7.85,few clouds
252,Vila,PT,42.0304,-8.1588,41.94,72,45,3.36,scattered clouds
253,Cidreira,BR,-30.1811,-50.2056,67.05,84,82,5.95,broken clouds
254,Rayon,MX,19.1444,-99.5836,51.91,63,88,3.67,overcast clouds
255,Chokurdakh,RU,70.6333,147.9167,-44.61,99,95,1.99,overcast clouds
256,Vao,NC,-22.6667,167.4833,78.71,88,100,19.24,light rain
257,Tianpeng,CN,30.9866,103.9393,55.2,56,72,6.76,broken clouds
258,Pakokku,MM,21.3333,95.1,80.62,50,21,9.78,few clouds
259,Vestmannaeyjar,IS,63.4427,-20.2734,43.27,88,99,32.55,overcast clouds
260,Blagoyevo,RU,63.3667,47.9167,12.94,85,100,7.9,overcast clouds
261,Shakhty,RU,47.7091,40.2144,29.82,75,41,13.04,scattered clouds
262,Letpadan,MM,17.7833,95.75,85.3,59,1,6.69,clear sky
263,Egvekinot,RU,66.3167,-179.1667,-26.23,83,20,4.72,few clouds
264,Baykit,RU,61.67,96.37,0.28,97,98,2.68,overcast clouds
265,Bambous Virieux,MU,-20.3428,57.7575,83.21,64,21,15.05,few clouds
266,Tairua,NZ,-37.0167,175.85,69.1,96,100,5.77,light rain
267,Kathu,TH,7.9178,98.3332,87.62,67,14,8.19,few clouds
268,Isangel,VU,-19.55,169.2667,82.72,82,100,11.1,overcast clouds
269,Vidalia,US,32.2177,-82.4135,63.75,100,90,0.0,overcast clouds
270,Urengoy,RU,65.9667,78.3667,-7.83,95,100,6.76,overcast clouds
271,Te Anau,NZ,-45.4167,167.7167,66.43,41,31,1.1,scattered clouds
272,Price,US,39.5994,-110.8107,21.11,68,1,4.61,clear sky
273,Zelenoborsk,RU,61.4669,64.0333,17.94,75,94,9.46,overcast clouds
274,Fortuna,US,40.5982,-124.1573,49.66,91,90,3.0,light rain
275,Sobolevo,RU,54.4299,31.8996,32.4,97,100,9.82,overcast clouds
276,Sao Lourenco Do Sul,BR,-31.3653,-51.9783,63.03,85,0,4.56,clear sky
277,Husavik,IS,66.0449,-17.3389,38.17,83,92,15.14,overcast clouds
278,Birjand,IR,32.8663,59.2211,49.37,23,0,3.91,clear sky
279,Pangai,TO,-19.8,-174.35,80.71,74,20,2.3,few clouds
280,Nizwa,OM,22.9333,57.5333,70.47,31,2,2.73,clear sky
281,San Juan,AR,-31.5375,-68.5364,78.76,33,0,10.87,clear sky
282,Diamantino,BR,-14.4086,-56.4461,73.45,97,100,3.98,overcast clouds
283,Presidencia Roque Saenz Pena,AR,-26.7852,-60.4388,69.67,68,31,4.7,scattered clouds
284,Kelowna,CA,49.8831,-119.4857,40.08,48,40,13.8,scattered clouds
285,Caravelas,BR,-17.7125,-39.2481,73.78,94,72,4.25,broken clouds
286,Mareeba,AU,-17.0,145.4333,87.44,67,45,9.51,scattered clouds
287,Spas-Demensk,RU,54.4122,34.0226,29.61,94,100,8.79,overcast clouds
288,Yulara,AU,-25.2406,130.9889,103.84,11,2,8.05,clear sky
289,Istok,XK,42.7808,20.4875,34.72,94,100,3.56,light snow
290,Cameta,BR,-2.2444,-49.4958,76.75,91,89,4.97,moderate rain
291,Nizhniy Tsasuchey,RU,50.5167,115.1333,11.91,59,12,5.08,few clouds
292,Lata,PT,40.1629,-8.3327,49.82,90,41,3.44,scattered clouds
293,Bilibino,RU,68.0546,166.4372,-40.4,98,17,3.69,few clouds
294,Yar-Sale,RU,66.8333,70.8333,-2.74,99,93,1.88,overcast clouds
295,Madimba,TZ,-10.4,40.3333,81.23,77,98,9.53,light rain
296,Tautira,PF,-17.7333,-149.15,80.62,72,34,6.6,scattered clouds
297,Novyy Urengoy,RU,66.0833,76.6333,-10.48,91,97,6.62,overcast clouds
298,Tuatapere,NZ,-46.1333,167.6833,55.81,58,1,8.43,clear sky
299,Taoudenni,ML,22.6783,-3.9836,60.93,22,9,9.89,clear sky
300,Mporokoso,ZM,-9.3727,30.125,75.36,43,54,6.49,broken clouds
301,Merauke,ID,-8.4667,140.3333,80.53,85,98,10.18,overcast clouds
302,Camacha,PT,33.0833,-16.3333,60.53,88,40,5.75,scattered clouds
303,Imbituba,BR,-28.24,-48.6703,71.49,92,69,2.55,light rain
304,Meulaboh,ID,4.1363,96.1285,86.09,65,20,5.1,few clouds
305,Turan,VN,16.0678,108.2208,78.78,69,75,10.36,broken clouds
306,Pangnirtung,CA,66.1451,-65.7125,-10.14,79,4,5.21,clear sky
307,Sangar,RU,63.9242,127.4739,-11.83,97,100,5.14,overcast clouds
308,Dikson,RU,73.5069,80.5464,-13.63,88,100,6.87,overcast clouds
309,Hope,US,33.6671,-93.5916,37.45,64,5,2.91,clear sky
310,Sri Aman,MY,1.2376,111.4621,84.97,79,100,3.36,light rain
311,Sakakah,SA,29.9697,40.2064,56.75,41,77,7.92,broken clouds
312,Kavaratti,IN,10.5669,72.642,82.31,69,66,7.56,broken clouds
313,Kaitangata,NZ,-46.2817,169.8464,54.93,58,3,9.73,clear sky
314,Bima,ID,-8.4667,118.7167,84.36,80,98,3.2,moderate rain
315,Ponta Delgada,PT,37.7333,-25.6667,66.51,94,40,17.27,scattered clouds
316,Seoul,KR,37.5683,126.9778,40.39,23,40,16.26,scattered clouds
317,Ayagoz,KZ,47.9714,80.4392,18.93,74,100,4.56,overcast clouds
318,Eden,US,36.4885,-79.7667,53.53,49,40,11.5,scattered clouds
319,Mizdah,LY,31.4451,12.9801,43.23,62,72,9.48,broken clouds
320,Lebu,CL,-37.6167,-73.65,51.37,86,44,9.66,scattered clouds
321,Pipri,IN,19.8,75.5333,78.33,40,5,9.31,clear sky
322,Monteagudo,BO,-19.8167,-63.9833,67.66,99,100,0.81,overcast clouds
323,Clarence Town,AU,-32.5833,151.7833,72.81,58,80,9.55,broken clouds
324,Bobrovka,RU,54.047,61.7455,11.5,86,6,6.69,clear sky
325,Codrington,AU,-38.2667,141.9667,74.12,42,3,15.68,clear sky
326,Quatre Cocos,MU,-20.2078,57.7625,83.08,62,31,15.1,scattered clouds
327,Jinchang,CN,38.4953,102.1739,32.29,29,0,5.86,clear sky
328,Porto Novo,BJ,6.4965,2.6036,77.7,87,57,4.0,broken clouds
329,Saint-Augustin,CA,51.226,-58.6502,28.17,83,100,20.0,light snow
330,Arlit,NE,18.7369,7.3853,63.5,10,52,5.12,broken clouds
331,Waingapu,ID,-9.6567,120.2641,86.29,70,38,7.67,scattered clouds
332,Tagusao,PH,9.1924,117.8141,84.0,74,100,3.78,light rain
333,Brae,GB,60.3964,-1.353,46.31,73,53,17.02,broken clouds
334,Nome,US,64.5011,-165.4064,-7.53,59,1,5.75,clear sky
335,Xingcheng,CN,40.6167,120.7167,30.63,24,0,14.9,clear sky
336,Vista Hermosa,MX,19.5167,-99.2167,55.54,62,1,10.36,smoke
337,Tilichiki,RU,60.4667,166.1,-11.6,83,52,8.34,broken clouds
338,Ucluelet,CA,48.9329,-125.5528,39.09,87,96,13.35,overcast clouds
339,Deputatskiy,RU,69.3,139.9,-27.85,100,98,1.05,overcast clouds
340,Jardim,BR,-21.4803,-56.1381,72.07,89,87,2.82,overcast clouds
341,Pedernales,DO,18.0384,-71.744,77.56,70,0,1.16,clear sky
342,Yanam,IN,16.7333,82.2167,86.4,58,51,10.22,broken clouds
343,Pemba,MZ,-12.974,40.5178,83.53,67,43,12.12,scattered clouds
344,Maceio,BR,-9.6658,-35.7353,78.24,88,75,2.3,broken clouds
345,Americus,US,32.0724,-84.2327,62.73,88,90,5.75,light rain
346,Yerbogachen,RU,61.2767,108.0108,-4.13,96,100,5.77,overcast clouds
347,Marrakesh,MA,31.6315,-8.0083,44.67,70,0,4.61,clear sky
348,Nuuk,GL,64.1835,-51.7216,23.61,86,75,6.91,broken clouds
349,Naze,JP,28.3667,129.4833,65.95,66,69,9.71,broken clouds
350,Baruun-Urt,MN,46.6806,113.2792,12.31,62,1,15.43,clear sky
351,Lebanon,US,36.2081,-86.2911,37.45,91,1,0.0,clear sky
352,Caucaia,BR,-3.7361,-38.6531,83.07,75,40,12.66,scattered clouds
353,Qaqortoq,GL,60.7167,-46.0333,21.7,86,81,3.15,broken clouds
354,Flinders,AU,-34.5833,150.8552,72.81,64,38,14.81,scattered clouds
355,Portland,US,45.5234,-122.6762,47.25,94,75,1.01,broken clouds
356,Tezu,IN,27.9167,96.1667,76.26,34,1,3.83,clear sky
357,Ceres,US,37.5949,-120.9577,47.82,91,67,5.3,broken clouds
358,Huarmey,PE,-10.0681,-78.1522,67.3,86,42,7.05,scattered clouds
359,Karpathos,GR,35.507,27.2132,64.36,72,20,18.41,few clouds
360,Gryazi,RU,52.4966,39.9359,23.61,88,46,8.75,scattered clouds
361,Kalmunai,LK,7.4167,81.8167,83.39,74,30,12.06,scattered clouds
362,Rupert,US,42.6191,-113.6772,40.89,32,90,12.66,overcast clouds
363,Alice Springs,AU,-23.7,133.8833,96.35,13,3,3.44,clear sky
364,Gorontalo,ID,0.5412,123.0595,87.13,74,44,2.91,scattered clouds
365,Alofi,NU,-19.0595,-169.9187,79.77,69,7,8.32,clear sky
366,Pacific Grove,US,36.6177,-121.9166,46.63,84,1,1.99,clear sky
367,Namwala,ZM,-15.7504,26.4384,81.86,29,16,8.55,few clouds
368,Gambo,CF,4.6482,22.2633,76.5,48,100,1.74,overcast clouds
369,North Bend,US,43.4065,-124.2243,48.92,96,90,6.91,mist
370,Souillac,MU,-20.5167,57.5167,83.35,61,10,15.57,clear sky
371,Maxixe,MZ,-23.8597,35.3472,85.35,61,85,9.78,overcast clouds
372,Agapovka,RU,53.2973,59.1348,10.96,87,18,2.84,few clouds
373,Boende,CD,-0.2167,20.8667,72.7,98,100,4.27,overcast clouds
374,Giyani,ZA,-23.3025,30.7187,87.31,34,31,3.96,scattered clouds
375,Port-Cartier,CA,50.0334,-66.8654,30.42,98,100,18.07,snow
376,Jalu,LY,29.0331,21.5482,55.06,51,67,7.0,broken clouds
377,Kiruna,SE,67.8557,20.2251,16.72,93,75,0.0,light snow
378,Yekaterinovka,RU,52.0508,44.3451,19.47,74,58,11.16,broken clouds
379,Canon City,US,38.441,-105.2424,43.21,24,1,8.05,clear sky
380,Severnoye,RU,56.3491,78.3619,2.26,95,21,6.49,few clouds
381,Impfondo,CG,1.6381,18.0667,75.02,60,93,1.74,overcast clouds
382,Itajuipe,BR,-14.6781,-39.375,69.67,99,41,0.34,scattered clouds
383,Lincoln,US,40.8,-96.667,36.84,47,1,5.01,clear sky
384,Bafra,TR,41.5678,35.9069,51.58,54,98,10.87,overcast clouds
385,Sabang,ID,5.8933,95.3214,83.05,72,69,20.29,broken clouds
386,Kogon,UZ,39.7228,64.5517,44.64,81,90,4.61,overcast clouds
387,Liaoyang,CN,41.2719,123.1731,25.12,29,0,14.56,clear sky
388,Richards Bay,ZA,-28.783,32.0377,79.88,76,99,6.6,overcast clouds
389,Muhos,FI,64.808,25.9931,27.7,94,100,7.05,overcast clouds
390,General Teran,MX,25.2667,-99.6833,51.55,39,75,0.49,broken clouds
391,Maumere,ID,-8.6199,122.2111,85.03,73,83,3.02,broken clouds
392,Kalispell,US,48.1958,-114.3129,38.16,80,90,11.01,overcast clouds
393,Paamiut,GL,61.994,-49.6678,22.64,85,100,20.33,overcast clouds
394,Port Hardy,CA,50.6996,-127.4199,35.76,100,90,4.61,light snow
395,Victor Harbor,AU,-35.5667,138.6167,95.47,50,6,1.01,clear sky
396,Fayaoue,NC,-20.65,166.5333,81.72,82,100,12.24,overcast clouds
397,Klyuchi,RU,52.2667,79.1667,15.66,88,100,6.29,overcast clouds
398,Kropotkin,RU,45.4375,40.5756,39.36,81,91,13.38,overcast clouds
399,Hay River,CA,60.8156,-115.7999,4.3,94,100,11.59,overcast clouds
400,Sanski Most,BA,44.7653,16.6656,35.08,85,100,4.63,overcast clouds
401,Casper,US,42.8666,-106.3131,37.51,51,1,20.0,clear sky
402,Melun,FR,48.5,2.75,45.97,100,90,8.05,overcast clouds
403,Beringovskiy,RU,63.05,179.3167,-24.02,98,48,6.22,scattered clouds
404,Rincon,US,32.296,-81.2354,66.16,92,90,5.75,light rain
405,Pemangkat,ID,1.1667,108.9667,83.43,73,82,7.72,broken clouds
406,Ixtapa,MX,20.7,-105.2,67.48,69,97,3.09,overcast clouds
407,Mahebourg,MU,-20.4081,57.7,83.25,64,16,15.43,few clouds
408,Windsor,CA,42.3001,-83.0165,35.94,78,1,1.99,clear sky
409,Klaksvik,FO,62.2266,-6.589,43.72,79,85,27.6,overcast clouds
410,Bonthe,SL,7.5264,-12.505,77.65,84,88,1.83,light rain
411,Yarmouth,US,41.7057,-70.2286,61.27,93,90,21.85,moderate rain
412,Mattru,SL,7.6244,-11.8332,73.9,93,88,1.41,overcast clouds
413,George Town,MY,5.4112,100.3354,89.53,55,20,6.91,few clouds
414,Sungaipenuh,ID,-2.0833,101.3833,78.13,67,96,4.25,overcast clouds
415,Benghazi,LY,32.1167,20.0667,62.76,60,24,12.75,few clouds
416,Eydhafushi,MV,5.1033,73.0708,80.49,76,99,3.36,light rain
417,Sembe,CG,1.6481,14.5806,74.52,71,100,2.37,overcast clouds
418,Marsa Matruh,EG,31.3525,27.2453,59.22,49,100,8.28,overcast clouds
419,Pamplona,ES,42.8169,-1.6432,48.97,92,40,3.44,scattered clouds
420,Greenville,US,35.6127,-77.3663,66.94,95,40,1.99,light rain
421,Krasnosilka,UA,46.6226,30.7742,46.51,84,92,15.26,overcast clouds
422,Port-Gentil,GA,-0.7193,8.7815,78.1,86,100,9.84,overcast clouds
423,Bukachacha,RU,52.9833,116.9167,0.61,71,49,3.71,scattered clouds
424,Dalbandin,PK,28.8947,64.4101,60.98,13,72,7.67,broken clouds
425,Komsomolskiy,UZ,40.4272,71.7189,45.82,42,23,6.91,haze
426,Fecamp,FR,49.7579,0.3746,51.51,95,71,12.17,broken clouds
427,Tual,ID,-5.6667,132.75,84.56,74,91,14.09,overcast clouds
428,Kindersley,CA,51.4668,-109.1682,18.34,90,44,4.9,scattered clouds
429,Fort Nelson,CA,58.8053,-122.7002,-4.94,96,84,4.18,broken clouds
430,Kindu,CD,-2.95,25.95,72.03,98,100,2.48,overcast clouds
431,Manaure,CO,11.7751,-72.4445,76.73,83,76,7.45,broken clouds
432,Shache,CN,38.4167,77.2406,30.56,44,0,0.43,clear sky
433,Sinnamary,GF,5.3833,-52.95,77.22,92,100,12.12,light rain
434,Rodrigues Alves,BR,-7.738,-72.6509,73.02,98,70,2.62,broken clouds
435,Gbarnga,LR,6.9956,-9.4722,70.21,99,29,1.34,scattered clouds
436,Barahona,DO,18.2085,-71.1008,74.77,82,0,0.6,clear sky
437,Hvide Sande,DK,56.0045,8.1294,40.08,91,100,24.32,overcast clouds
438,Hofn,IS,64.2539,-15.2082,41.99,85,100,29.15,overcast clouds
439,Havoysund,NO,70.9963,24.6622,32.88,83,100,10.4,overcast clouds
440,Xining,CN,36.6167,101.7667,25.57,44,19,1.68,few clouds
441,Jacareacanga,BR,-6.2222,-57.7528,73.83,100,100,1.41,light rain
442,Jumla,NP,29.2747,82.1838,55.27,13,80,4.43,broken clouds
443,Ust-Maya,RU,60.4167,134.5333,-29.11,100,98,0.72,overcast clouds
444,Farap,TM,39.1704,63.6116,51.31,58,6,2.64,clear sky
445,Terrace,CA,54.5163,-128.6035,30.42,100,90,2.3,light snow
446,Den Helder,NL,52.9599,4.7593,48.18,99,90,15.01,mist
447,Aloleng,PH,16.1307,119.7824,86.41,61,81,7.38,broken clouds
448,Puerto Madryn,AR,-42.7692,-65.0385,65.32,30,0,20.6,clear sky
449,Great Falls,US,47.5002,-111.3008,41.41,43,1,8.01,clear sky
450,Kralendijk,BQ,12.15,-68.2667,80.53,76,13,14.16,few clouds
451,Nam Som,TH,17.7704,102.1895,86.41,40,1,9.78,clear sky
452,Balagansk,RU,54.0103,103.0544,13.53,76,100,1.28,overcast clouds
453,Bayir,TR,37.2687,28.2167,59.52,93,94,14.54,overcast clouds
454,Kachug,RU,53.9606,105.8817,13.82,77,100,0.98,overcast clouds
455,Biak,ID,-0.9131,122.8766,84.04,72,77,3.09,broken clouds
456,Camalu,MX,30.85,-116.0667,55.89,59,7,5.48,clear sky
457,Warrington,GB,53.3925,-2.5802,54.32,97,90,0.0,drizzle
458,Makakilo City,US,21.3469,-158.0858,75.56,68,1,5.75,clear sky
459,Tottori,JP,35.5,134.2333,57.13,68,93,16.67,light rain
460,Awbari,LY,26.5921,12.7805,49.48,38,72,5.82,broken clouds
461,Gairatganj,IN,23.4202,78.2385,70.16,37,0,3.98,clear sky
462,Sola,VU,-13.8833,167.55,80.74,82,100,19.69,overcast clouds
463,Saint-Francois,FR,46.4154,3.9054,32.47,97,90,2.3,overcast clouds
464,Darhan,MN,49.4867,105.9228,13.1,73,18,9.33,few clouds
465,Falun,SE,60.6036,15.626,31.21,97,97,2.59,overcast clouds
466,Shellbrook,CA,53.2168,-106.4011,19.31,90,55,6.44,broken clouds
467,Port Macquarie,AU,-31.4333,152.9167,72.9,68,40,17.27,scattered clouds
468,Merritt Island,US,28.5392,-80.672,72.01,90,1,4.61,clear sky
469,Isabela,PH,6.7085,121.9711,86.22,72,92,4.29,overcast clouds
470,Bathsheba,BB,13.2167,-59.5167,79.3,80,100,17.9,overcast clouds
471,Adrar,MR,20.5022,-10.0711,61.75,21,62,9.66,broken clouds
472,San Patricio,US,28.017,-97.5169,53.83,39,80,8.63,broken clouds
473,Upernavik,GL,72.7868,-56.1549,3.69,95,100,10.38,overcast clouds
474,Aykhal,RU,66.0,111.5,-37.97,100,40,1.97,scattered clouds
475,Wyndham,US,37.6985,-77.6125,55.18,59,90,1.99,overcast clouds
476,Bilma,NE,18.6853,12.9164,59.72,15,33,6.13,scattered clouds
477,Saint-Joseph,RE,-21.3667,55.6167,82.78,72,82,10.83,broken clouds
478,La Palma,US,33.8464,-118.0467,58.35,64,1,3.44,clear sky
479,Boyolangu,ID,-8.1181,111.8935,85.5,70,41,10.25,scattered clouds
480,Evensk,RU,61.95,159.2333,6.01,53,99,18.77,overcast clouds
481,Hearst,CA,49.6835,-83.6665,18.21,89,17,8.48,few clouds
482,Yumen,CN,40.2833,97.2,28.08,34,0,6.76,clear sky
483,Alexandria,EG,31.2156,29.9553,64.13,66,88,0.87,overcast clouds
484,Praia Da Vitoria,PT,38.7333,-27.0667,58.75,85,100,13.56,overcast clouds
485,Khani,GE,41.9563,42.9566,47.77,40,73,7.7,broken clouds
486,Sarkand,KZ,45.41,79.9186,37.62,79,99,3.11,light rain
487,Mocajuba,BR,-2.5842,-49.5072,74.7,97,99,2.35,moderate rain
488,Laguna,US,38.421,-121.4238,51.08,81,40,0.0,scattered clouds
489,Olga,RU,43.7444,135.2892,26.56,53,44,18.07,scattered clouds
490,North Battleford,CA,52.7834,-108.2847,19.0,91,66,6.46,broken clouds
491,Tres Arroyos,AR,-38.3739,-60.2798,64.92,89,100,11.88,light rain
492,Kontagora,NG,10.3999,5.4695,69.42,21,82,5.44,broken clouds
493,Tessalit,ML,20.1986,1.0114,62.87,13,1,7.92,clear sky
494,Kieta,PG,-6.2167,155.6333,84.04,77,96,1.59,light rain
495,Vilyuysk,RU,63.7553,121.6247,-35.25,99,90,2.77,overcast clouds
496,Andenes,NO,69.3143,16.1194,33.78,93,75,13.8,light intensity drizzle
497,Ayr,GB,55.4627,-4.6339,48.49,87,20,6.91,few clouds
498,Zalari,RU,53.5584,102.5065,14.63,75,100,2.53,overcast clouds
499,Kasongo-Lunda,CD,-6.4667,16.8167,73.09,88,97,0.49,overcast clouds
500,Grand Baie,MU,-20.0182,57.5802,83.44,61,41,14.0,scattered clouds
501,Duluth,US,46.7833,-92.1066,25.61,77,1,5.01,clear sky
502,Qunduz,AF,36.729,68.857,52.21,35,0,2.06,clear sky
503,Nioro,GM,13.35,-15.75,69.58,69,25,1.3,scattered clouds
504,Estelle,US,29.8458,-90.1067,55.99,71,90,9.22,overcast clouds
505,Santa Fe,AR,-31.6333,-60.7,75.0,75,37,3.0,light rain
506,Grindavik,IS,63.8424,-22.4338,39.67,100,75,11.5,broken clouds
507,Chicama,PE,-7.8447,-79.1469,66.9,82,34,3.91,scattered clouds
508,Iqaluit,CA,63.7506,-68.5145,-4.31,70,76,4.0,broken clouds
509,Uttarkashi,IN,30.7333,78.45,63.25,19,99,5.06,overcast clouds
510,Ahmadpur,IN,18.7,76.9333,77.18,38,58,9.53,broken clouds
511,Koindu,GN,8.4386,-10.3253,68.09,96,96,0.45,overcast clouds
512,Yining,CN,29.0361,114.5636,50.05,81,100,4.0,light rain
513,Ranong,TH,9.9658,98.6348,84.04,64,54,12.21,broken clouds
514,Ankang,CN,32.68,109.0172,54.39,45,46,2.21,scattered clouds
515,Kloulklubed,PW,7.0419,134.2556,81.1,77,58,12.68,heavy intensity rain
516,Bouna,CI,9.2667,-3.0,71.4,24,52,2.75,broken clouds
517,Caxito,AO,-8.5785,13.6643,76.46,95,99,2.39,overcast clouds
518,Bekesszentandras,HU,46.8667,20.4833,37.45,72,100,21.07,light rain
519,Ubinskoye,RU,55.3068,79.6802,2.53,95,100,7.76,overcast clouds
520,Umm Kaddadah,SD,13.6017,26.6876,68.04,29,5,14.36,clear sky
521,Ketchikan,US,55.3422,-131.6461,32.47,86,90,11.5,light snow
522,Komsomolets,KZ,53.7453,62.0708,10.09,89,6,6.2,clear sky
523,Bollnas,SE,61.3482,16.3946,28.38,85,95,5.93,overcast clouds
524,Labe,GN,11.3182,-12.2833,63.86,44,99,2.33,overcast clouds
525,Umea,SE,63.8284,20.2597,30.13,100,90,5.75,light snow
526,Broome,US,42.2506,-75.833,41.45,66,90,7.0,overcast clouds
527,Pitimbu,BR,-7.4706,-34.8086,79.39,68,13,11.54,few clouds
528,Chapais,CA,49.7834,-74.8492,22.78,91,100,20.04,light snow
529,Nguru,NG,12.8791,10.4526,65.35,15,72,9.75,broken clouds
530,Miraflores,MX,19.2167,-98.8083,55.02,61,56,2.33,broken clouds
531,Darnah,LY,32.767,22.6367,57.63,63,0,15.41,clear sky
532,Washington,US,47.5001,-120.5015,36.57,81,8,5.12,clear sky
533,Okhotsk,RU,59.3833,143.3,2.89,79,100,15.05,overcast clouds
534,Khandyga,RU,62.6667,135.6,-35.72,100,55,1.23,broken clouds
535,Devils Lake,US,48.1128,-98.8651,31.98,64,1,13.0,clear sky
536,Luwuk,ID,-0.9516,122.7875,86.04,77,89,1.99,light rain
537,Ouadda,CF,8.0777,22.4007,78.08,28,92,8.68,overcast clouds
538,Cap Malheureux,MU,-19.9842,57.6142,83.46,61,25,14.0,scattered clouds
539,Porto Walter,BR,-8.2686,-72.7439,71.85,99,91,2.66,overcast clouds
540,Araouane,ML,18.9048,-3.5265,62.17,11,5,9.26,clear sky
541,Konskie,PL,51.1917,20.4061,33.01,96,87,3.98,overcast clouds
542,Nabire,ID,-3.3667,135.4833,86.79,67,84,6.26,broken clouds
543,Cascavel,BR,-24.9558,-53.4553,68.36,56,95,5.26,overcast clouds
544,Nouakchott,MR,18.0858,-15.9785,66.13,28,61,13.33,broken clouds
545,Leshukonskoye,RU,64.8989,45.7622,12.31,89,100,6.93,overcast clouds
546,Sigiriya,LK,7.9518,80.7426,82.26,72,49,10.29,scattered clouds
547,Davidson,US,36.1501,-86.7833,37.69,76,1,4.0,clear sky
548,Vanimo,PG,-2.6741,141.3028,84.04,75,100,8.81,overcast clouds
549,Illapel,CL,-31.6308,-71.1653,57.24,90,5,2.98,clear sky
550,Aqtobe,KZ,50.2797,57.2072,17.69,62,0,15.66,clear sky
551,San Rafael,AR,-34.6177,-68.3301,59.65,80,22,11.5,few clouds
552,Maragogi,BR,-9.0122,-35.2225,76.73,81,10,9.24,clear sky
553,Uyuni,BO,-20.4597,-66.825,41.7,46,26,9.86,scattered clouds
554,Oranjemund,NA,-28.55,16.4333,64.26,70,71,6.55,broken clouds
555,Haines Junction,CA,60.7522,-137.5108,-0.49,96,100,3.76,overcast clouds
556,Kurumkan,RU,54.3,110.3,0.45,98,100,1.41,light snow
557,Villazon,BO,-22.0866,-65.5942,48.42,32,15,10.31,few clouds
558,Vardo,NO,70.3705,31.1107,28.69,92,100,16.96,light snow
559,South Sioux City,US,42.4739,-96.4136,31.35,68,1,1.01,clear sky
560,Kuloy,RU,61.0305,42.4925,6.12,91,91,5.3,overcast clouds
561,Halifax,CA,44.6453,-63.5724,58.08,95,100,15.99,overcast clouds
562,Shambu,ET,9.5667,37.1,60.13,29,32,3.2,scattered clouds
563,Daru,PG,-9.0763,143.2092,81.03,81,99,6.85,moderate rain
564,Hostotipaquillo,MX,21.0667,-104.0667,65.3,51,80,1.21,broken clouds
565,Canoa,DO,18.355,-71.1585,72.68,84,0,0.43,clear sky
566,Show Low,US,34.2542,-110.0298,34.09,62,1,10.36,clear sky
567,Varna,BG,43.2167,27.9167,55.24,95,90,8.05,light rain
568,Buala,SB,-8.145,159.5921,82.47,81,98,5.99,light rain
569,Yatou,CN,37.15,122.3833,37.11,42,96,20.15,overcast clouds
570,La Rioja,ES,42.25,-2.5,42.48,94,16,5.61,few clouds
571,Vargem Grande Do Sul,BR,-21.8322,-46.8936,72.41,68,99,3.62,overcast clouds
572,Funadhoo,MV,6.15,73.2667,82.27,71,75,8.05,broken clouds
573,Ukiah,US,39.1502,-123.2078,49.84,88,90,4.61,light rain
574,Rancho Palos Verdes,US,33.7445,-118.387,59.07,53,34,7.29,scattered clouds
575,Canavieiras,BR,-15.675,-38.9472,74.52,88,5,5.21,clear sky
576,Chebsara,RU,59.2002,38.8356,4.33,89,41,7.18,scattered clouds
577,Santa Lucia,ES,27.9117,-15.5407,58.32,63,75,11.5,broken clouds
578,Sulangan,PH,11.1373,123.7228,82.11,81,97,12.28,overcast clouds
579,Karla,EE,59.3723,24.9275,33.76,85,90,2.3,light intensity drizzle
580,Necochea,AR,-38.5473,-58.7368,69.04,85,91,12.03,light rain
581,Itaituba,BR,-4.2761,-55.9836,73.58,99,100,0.83,overcast clouds
582,Sao Miguel Do Araguaia,BR,-13.275,-50.1628,71.89,96,100,3.0,light rain
583,Awjilah,LY,29.1081,21.2869,55.18,47,69,7.56,broken clouds
584,Fernley,US,39.608,-119.2518,41.85,53,100,5.3,overcast clouds
585,Wana,PK,32.2989,69.5725,53.82,16,93,2.8,overcast clouds
586,Kondinskoye,RU,59.6481,67.41,10.99,88,68,8.93,broken clouds
587,Homer,US,59.6425,-151.5483,17.47,72,1,0.0,clear sky
588,Solhan,TR,38.9634,41.0293,31.62,47,25,5.5,scattered clouds
589,Bud,US,39.447,-86.1758,33.04,79,0,7.83,clear sky
590,Markova,UA,48.6758,24.4138,29.79,99,100,3.58,snow
591,Amapa,BR,1.0,-52.0,71.94,100,99,1.05,overcast clouds
592,Svetlogorsk,BY,52.6333,29.7333,39.97,97,100,7.7,overcast clouds
593,Krasnoselkup,RU,65.7,82.4667,-16.87,95,83,7.52,broken clouds
594,Pafos,CY,34.7667,32.4167,64.31,62,0,8.05,clear sky
595,Hirna,ET,9.2167,41.1,61.72,60,0,4.72,clear sky
596,Bubaque,GW,11.2833,-15.8333,80.78,75,91,5.84,overcast clouds
597,Montefiascone,IT,42.5393,12.0362,38.08,74,12,10.98,few clouds
598,Nouadhibou,MR,20.931,-17.0347,66.06,50,64,15.32,broken clouds
599,Boysun,UZ,38.2061,67.1986,44.42,21,1,2.26,clear sky
600,Faanui,PF,-16.4833,-151.75,80.91,70,83,6.29,broken clouds
601,Altos,BR,-5.0381,-42.46,77.31,90,85,3.69,overcast clouds
602,Maltahohe,NA,-24.8333,16.9833,73.98,17,2,7.43,clear sky
603,Westfield,US,42.1251,-72.7495,51.62,69,90,1.01,overcast clouds
604,Arroio Grande,BR,-32.2375,-53.0869,58.55,94,0,5.35,clear sky
605,Altus,US,34.6381,-99.334,35.67,44,1,9.22,clear sky
606,Salunayan,PH,7.1544,124.4975,91.2,57,89,2.21,overcast clouds
607,Christchurch,NZ,-43.5333,172.6333,59.95,62,90,1.99,overcast clouds
608,San Ramon,US,37.7799,-121.978,50.38,83,1,1.99,clear sky
609,Iberia,US,29.9502,-91.7507,50.07,62,1,12.66,clear sky
610,Nyurba,RU,63.2842,118.3319,-30.62,98,91,2.1,overcast clouds
611,Mulchen,CL,-37.7167,-72.2333,46.45,90,68,1.68,broken clouds
612,Nyrob,RU,60.733,56.7202,-12.77,100,99,3.53,overcast clouds
613,Ladario,BR,-19.0047,-57.6017,74.88,87,100,4.18,light rain
614,Holzkirchen,DE,47.8766,11.7018,32.52,93,96,4.74,overcast clouds
615,Saint George,US,37.1041,-113.5841,37.99,64,1,1.01,clear sky
616,Manicore,BR,-5.8092,-61.3003,73.49,99,100,2.26,overcast clouds
617,Soyo,AO,-6.1349,12.3689,75.97,94,100,3.4,heavy intensity rain
618,Elbasan,AL,41.1125,20.0822,43.52,90,98,4.52,overcast clouds
619,Tonantins,BR,-2.8731,-67.8022,73.99,99,100,1.83,overcast clouds
620,Ostrovnoy,RU,68.0531,39.5131,20.5,92,90,12.66,overcast clouds
621,Atbasar,KZ,51.8,68.3333,9.05,88,98,8.61,overcast clouds
622,Ust-Tsilma,RU,65.441,52.1498,12.65,86,66,7.25,broken clouds
623,Cayenne,GF,4.9333,-52.3333,74.08,92,90,4.61,heavy intensity rain
624,Naryan-Mar,RU,67.6713,53.087,19.98,95,100,14.43,light snow
625,Healdsburg,US,38.6105,-122.8692,51.53,78,90,0.0,light rain
626,Coihaique,CL,-45.5752,-72.0662,47.01,81,75,4.61,broken clouds
627,San Policarpo,PH,12.1791,125.5072,81.07,87,97,14.38,overcast clouds
628,Bahia Honda,CU,22.9036,-83.1592,72.66,81,65,2.75,broken clouds
629,Korla,CN,41.7597,86.1469,27.03,57,6,4.25,clear sky
630,Orsha,BY,54.5153,30.4053,30.42,98,100,8.61,overcast clouds
631,Tabory,RU,58.5198,64.5495,14.04,78,64,7.09,broken clouds
632,Maniitsoq,GL,65.4167,-52.9,19.56,85,93,9.42,overcast clouds
633,Kamenka,RU,51.3223,42.7678,22.75,64,72,10.13,broken clouds
634,Shatsk,RU,54.0258,41.7119,19.89,72,74,8.05,broken clouds
635,Biltine,TD,14.5333,20.9167,70.97,20,7,10.74,clear sky
636,Salinopolis,BR,-0.6136,-47.3561,80.04,81,68,11.86,broken clouds
637,Seymchan,RU,62.8833,152.4333,-27.49,96,100,0.92,overcast clouds
638,Fenoarivo,MG,-18.933,47.4354,73.47,56,20,8.05,few clouds
639,Polyarnyye Zori,RU,67.3661,32.4981,19.9,96,100,3.4,light snow
640,Hegang,CN,47.4,130.3667,15.55,73,100,13.69,overcast clouds
641,Ilsede,DE,52.2667,10.2,40.17,94,99,5.99,overcast clouds
642,Luanda,AO,-8.8368,13.2343,76.14,92,100,7.83,moderate rain
643,San Jeronimo,PE,-11.9472,-75.2829,50.52,83,100,1.66,overcast clouds
644,Asyut,EG,27.181,31.1837,67.15,29,100,4.9,overcast clouds
645,Sirari,TZ,-1.2333,34.4333,68.85,56,74,11.25,broken clouds
646,Berbera,SO,10.4396,45.0143,80.35,62,4,14.12,clear sky
647,Mogok,MM,22.9167,96.5,70.63,58,17,2.35,few clouds
648,Waipawa,NZ,-41.4122,175.5153,57.45,79,100,5.06,overcast clouds
649,Joshimath,IN,30.5667,79.5667,57.34,22,98,3.53,overcast clouds
650,Esmeraldas,BR,-19.7625,-44.3139,72.46,92,57,4.36,broken clouds
651,Raduzhnyy,RU,62.0961,77.475,-8.9,96,72,7.2,broken clouds
652,Hamilton,US,39.1834,-84.5333,34.23,82,1,1.99,clear sky
653,Mordovo,RU,52.0834,40.77,25.07,60,60,10.63,broken clouds
654,Half Moon Bay,US,37.4636,-122.4286,51.87,83,1,1.01,clear sky
655,Chukhloma,RU,58.7525,42.6825,8.69,86,51,7.58,broken clouds
656,Zalantun,CN,48.0,122.7167,12.6,49,0,19.1,clear sky
657,Saint-Louis,SN,16.3333,-15.0,72.75,15,56,9.22,broken clouds
658,Formosa,AR,-26.1775,-58.1781,74.41,55,84,4.81,broken clouds
659,Swan River,CA,52.1058,-101.2676,31.82,79,14,17.98,few clouds
660,Shepsi,RU,44.0361,39.1489,56.86,53,100,5.19,overcast clouds
661,Jiaozuo,CN,35.2397,113.2331,47.8,39,65,6.26,broken clouds
662,La Crosse,US,43.8014,-91.2396,27.37,80,1,1.99,clear sky
663,Noumea,NC,-22.2763,166.4572,84.99,99,100,9.42,overcast clouds
664,Okha,RU,53.5739,142.9478,25.48,94,98,8.66,overcast clouds
665,Oktyabrskoye,RU,43.0645,44.7417,32.14,100,90,4.47,mist
666,Karacakoy,TR,41.4029,28.3834,57.67,77,89,13.98,light rain
667,Madawaska,US,47.3561,-68.3288,44.65,81,90,20.71,light rain
668,Simbahan,PH,6.3032,120.5836,82.99,76,98,2.64,overcast clouds
669,Abnub,EG,27.2696,31.1511,66.96,30,100,4.59,overcast clouds
670,Abu Samrah,SY,35.3029,37.1841,52.41,58,0,5.01,clear sky
671,Matay,EG,28.419,30.7792,63.03,55,100,7.29,overcast clouds
672,Don Sak,TH,9.3168,99.6918,87.15,65,53,10.51,broken clouds
673,Aranos,NA,-24.1333,19.1167,77.81,42,100,7.72,overcast clouds
674,Gopalpur,IN,19.2667,84.9167,78.1,61,17,9.55,few clouds
675,Constantine,DZ,36.365,6.6147,42.21,81,67,13.35,broken clouds
